[
  {
    "name": "JG Ross Inverurie",
    "category": "food",
    "location": "Inverurie",
    "address": "Highclere Business Park, Highclere Way, Inverurie",
    "postcode": "AB51 5QW",
    "website": "https://www.jg-ross.co.uk/coffee-shops"
  },
  {
    "name": "Mains of Drum",
    "category": "food",
    "location": "Banchory",
    "address": "East Mains of Drum, Drumoak, Banchory",
    "postcode": "AB31 5AN",
    "website": "https://www.mainsofdrum.co.uk/restaurant/"
  },
  {
    "name": "Andersons",
    "category": "food",
    "location": "Inverurie",
    "address": "Highclere Business Park Inverurie, Aberdeenshire",
    "postcode": "AB51 5QW",
    "website": "https://andersonsofinverurie.co.uk/pages/coffee-shop"
  },
  {
    "name": "Kellockbank",
    "category": "food",
    "location": "Insch",
    "address": "Culsalmond, Insch, Aberdeenshire",
    "postcode": "AB52 6SN",
    "website": "https://onlinestore.kellockbank.com/"
  },
  {
    "name": "Kirktown Garden Centre",
    "category": "food",
    "location": "Stonehaven",
    "address": "Broomhill Rd, Kirktown of Fetteresso, Stonehaven",
    "postcode": "AB39 3UP",
    "website": "https://kirktowngardencentre.co.uk/"
  },
  {
    "name": "The Old Pier Coffee House",
    "category": "food",
    "location": "Stonehaven",
    "address": "The Old Pier Stonehaven",
    "postcode": "AB39 2JU",
    "website": "https://www.theoldpierstonehaven.com/"
  },
  {
    "name": "Thyme Out",
    "category": "food",
    "location": "Aberdeen",
    "address": "569 Great Western Rd, Aberdeen",
    "postcode": "AB10 6PA",
    "website": "https://www.facebook.com/ThymeOutCoffeeShop/"
  },
  {
    "name": "Wagamama (Aberedeen)",
    "category": "food",
    "location": "Aberdeen",
    "address": "Union Square, Aberdeen",
    "postcode": "AB11 5RG",
    "website": "https://www.wagamama.com/restaurants/aberdeen/aberdeen"
  },
  {
    "name": "Forest Caf√©",
    "category": "food",
    "location": "Midmar",
    "address": "Treehouse, Midmar Aberdeenshire",
    "postcode": "AB51 7NB",
    "website": "https://www.forestcafe.co.uk/"
  },
  {
    "name": "Finzean Farm Shop",
    "category": "food",
    "location": "Finzean",
    "address": "Finzean Estate Finzean, Banchory Aberdeenshire",
    "postcode": "AB31 6PA",
    "website": "https://www.finzean.com/farmshop"
  },
  {
    "name": "Coffee Apothecary Udny",
    "category": "food",
    "location": "Udny",
    "address": "Udny, Ellon",
    "postcode": "AB41 7PQ",
    "website": "https://www.thecoffeeapothecary.co.uk/"
  },
  {
    "name": "Harbour Dunes",
    "category": "food",
    "location": "Cruden Bay",
    "address": "1A Harbour Street, Cruden Bay, Aberdeenshire",
    "postcode": "AB42 0NB",
    "website": "https://harbour-dunes.co.uk/home"
  },
  {
    "name": "Simpsons",
    "category": "food",
    "location": "Mintlaw",
    "address": "North Street Mintlaw Peterhead",
    "postcode": "AB42 5HH",
    "website": "https://www.simpsonsgardencentre.co.uk/our-restaurant/"
  },
  {
    "name": "Remoir Garden Centre",
    "category": "food",
    "location": "Banchory",
    "address": "Raemoir Road, Banchory, Aberdeenshire",
    "postcode": "AB31 4EJ",
    "website": "https://www.raemoirgardencentre.co.uk/departments/the-garden-restaurant-raemoir-cafe/s"
  },
  {
    "name": "Marshall's Farm Shop",
    "category": "food",
    "location": "Kintore",
    "address": "Boghead Farm, Kintore, Aberdeenshire",
    "postcode": "AB51 0XD",
    "website": "https://marshallsfarmshop.co.uk/"
  },
  {
    "name": "Gloagburn Farm Shop",
    "category": "food",
    "location": "Perth",
    "address": "Tibbermore, Perth",
    "postcode": "PH1 1QL",
    "website": "https://www.gloagburn.co.uk/"
  }
]
